catalog_version: 2026-06-19.1

# 지도에는 이 파일에서 주소와 좌표가 확인된 매장만 표시합니다.
# 전국 단위 페이지이거나 주소가 아직 확정되지 않은 매장은 일부러 비워두고,
# 대시보드의 "주소 확인 필요" 목록에서 따로 확인하게 합니다.
locations:
  - store_id: play33_konkuk
    address: 서울 광진구 아차산로26길 20 지하1층
    latitude: 37.5405363
    longitude: 127.0657866
    brand_name: 플레이33
    map_note: Play33 공개 지도 주소와 Google Maps 주소 검색 좌표 확인, 2026-06-16
  - store_id: play33_hongdae
    address: 서울 마포구 와우산로21길 36-8 2층,3층
    latitude: 37.5527322
    longitude: 126.9220691
    brand_name: 플레이33
    map_note: 공개 검색 주소와 Google Maps 주소 검색 좌표 확인, 2026-06-16

  - store_id: xdungeon_luna
    address: 서울특별시 강남구 강남대로94길 20
    latitude: 37.4994554
    longitude: 127.0290208
    brand_name: 비트포비아
    map_note: Google Maps 공개 검색 결과 확인, 2026-06-16
  - store_id: xdungeon_stella
    address: 서울특별시 강남구 테헤란로14길 34 이지소울리더 B1
    latitude: 37.4971971
    longitude: 127.033723
    brand_name: 비트포비아
    map_note: Google Maps 공개 검색 결과 확인, 2026-06-16

  - store_id: zero_gimpo
    address: 경기도 김포시 김포한강9로75번길 180 두원타워 4층
    latitude: 37.6450111
    longitude: 126.6243863
    brand_name: 제로월드
    map_note: Google Maps 공개 검색 결과 확인, 2026-06-16
  - store_id: zero_gangnam
    address: 서울특별시 서초구 서초대로73길 40 지하1층
    latitude: 37.5009048
    longitude: 127.0245108
    brand_name: 제로월드
    map_note: 공식/공개 주소와 Google Maps 공개 검색 결과 확인, 2026-06-16
  - store_id: zero_hongdae
    address: 서울특별시 마포구 잔다리로6길 20-9
    latitude: 37.5519088
    longitude: 126.9206861
    brand_name: 제로월드
    map_note: Google Maps 공개 검색 결과 확인, 2026-06-16

  - store_id: keyescape_jeonju
    address: 전북특별자치도 전주시 완산구 효자동2가 1155-6
    latitude: 35.8155753
    longitude: 127.1084188
    brand_name: 키이스케이프
    map_note: Google Maps 공개 검색 결과 확인, 2026-06-16

  - store_id: codek_gangnam
    address: 서울특별시 강남구 봉은사로2길 31
    latitude: 37.5025851
    longitude: 127.0264504
    brand_name: 코드케이
    map_note: Google Maps 공개 검색 결과 확인, 2026-06-16
  - store_id: codek_guwol
    address: 인천광역시 남동구 구월동 1467-1 대건빌딩 501호
    latitude: 37.4442053
    longitude: 126.70166
    brand_name: 코드케이
    map_note: Google Maps 공개 검색 결과 확인, 2026-06-16
  - store_id: page_today
    address: 서울특별시 강남구 봉은사로6길 26 지하1층
    latitude: 37.5033327
    longitude: 127.0271
    brand_name: 오늘의한페이지
    map_note: 공식 페이지 주소와 Google Maps 공개 검색 결과 확인, 2026-06-16

  - store_id: imaginary_door_daehangno
    address: 서울 종로구 창경궁로34길 18-5 지하3층
    latitude: 37.5840826
    longitude: 127.000797
    brand_name: 상상의문
    map_note: 공식 예약 페이지 주소와 Google Maps 공개 검색 결과 확인, 2026-06-16
  - store_id: imaginary_door_gwangju
    address: 광주광역시 동구 충장로 80-5 6층
    latitude: 35.1480222
    longitude: 126.9158744
    brand_name: 상상의문
    map_note: 공식 예약 페이지 주소와 Google Maps 공개 검색 결과 확인, 2026-06-16
  - store_id: imaginary_door_suwon
    address: 경기도 수원시 팔달구 인계로138번길 44 4층
    latitude: 37.265086
    longitude: 127.0317663
    brand_name: 상상의문
    map_note: 공식 예약 페이지 주소와 Google Maps 공개 검색 결과 확인, 2026-06-16
  - store_id: imaginary_door_bupyeong
    address: 인천 부평구 시장로12번길 7 보광빌딩 4층
    latitude: 37.4921699
    longitude: 126.7249434
    brand_name: 상상의문
    map_note: 공식 예약 페이지 주소와 Google Maps 공개 검색 결과 확인, 2026-06-16
  - store_id: imaginary_door_suwon2
    address: 경기 수원시 팔달구 효원로249번길 46-18 3층
    latitude: 37.2640724
    longitude: 127.0308204
    brand_name: 상상의문
    map_note: 공식 예약 페이지 주소와 Google Maps 주소 검색 좌표 확인, 2026-06-16

  - store_id: earthstar_daegu
    address: 대구광역시 중구 동성로 15-1 3층~5층
    latitude: 35.8683756
    longitude: 128.5946388
    brand_name: 지구별방탈출
    map_note: Google Maps 공개 검색 결과 확인, 2026-06-16
  - store_id: earthstar_hongdae_lastcity
    address: 서울특별시 마포구 홍익로 10 101동 1층
    latitude: 37.5539843
    longitude: 126.9229604
    brand_name: 지구별방탈출
    map_note: Google Maps 공개 검색 결과 확인, 2026-06-16

  - store_id: cubeescape_hongdae
    address: 서울특별시 마포구 양화로16길 15
    latitude: 37.5532787
    longitude: 126.9206325
    brand_name: 큐브이스케이프
    map_note: Google Maps 공개 검색 결과 확인, 2026-06-16
  - store_id: cubeescape_jamsil
    address: 서울시 송파구 잠실동 177-5
    latitude: 37.5107107
    longitude: 127.0799608
    brand_name: 큐브이스케이프
    map_note: 공식 예약 페이지 주소와 Google Maps 공개 검색 좌표 확인, 2026-06-16

  - store_id: frank_gangnam
    address: 서울시 강남구 역삼동 817-22 3층
    latitude: 37.5001796
    longitude: 127.0285604
    brand_name: 프랭크의 골동품가게
    map_note: 공식 예약 페이지 주소와 Google Maps 주소 검색 좌표 확인, 2026-06-16
  - store_id: xescape_doobdoo
    address: 서울특별시 마포구 와우산로21길 20-5 2층
    latitude: 37.5526449
    longitude: 126.9226792
    brand_name: 엑스이스케이프
    map_note: 공식 예약 페이지 주소와 Google Maps 주소 검색 좌표 확인, 2026-06-16
  - store_id: oasis_hongdae
    address: 서울특별시 마포구 독막로9길 18 지하1층
    latitude: 37.5490931
    longitude: 126.9200963
    brand_name: 오아시스뮤지엄
    map_note: Google Maps 공개 검색 결과 확인, 2026-06-16

  - store_id: shortstories_gangnam
    address: 서울특별시 강남구 봉은사로4길 36
    latitude: 37.5024807
    longitude: 127.0268068
    brand_name: 단편선
    map_note: Google Maps 공개 검색 결과 확인, 2026-06-16
  - store_id: shortstories_seongsu
    address: 서울특별시 성동구 아차산로 122
    latitude: 37.5438518
    longitude: 127.0574717
    brand_name: 단편선
    map_note: Google Maps 공개 검색 결과 확인, 2026-06-16

  - store_id: fantastrick_second
    address: 서울특별시 서초구 사평대로 353
    latitude: 37.5042124
    longitude: 127.0217727
    brand_name: 판타스트릭
    map_note: Google Maps 공개 검색 결과 확인, 2026-06-16
  - store_id: goldenkey_gangnam_timesquare
    address: 서울특별시 강남구 강남대로98길 25
    latitude: 37.5010479
    longitude: 127.0286417
    brand_name: 황금열쇠
    map_note: Google Maps 공개 검색 결과 확인, 2026-06-16
  - store_id: goldenkey_konkuk_utopia
    address: 서울특별시 광진구 아차산로29길 12
    latitude: 37.5413881
    longitude: 127.068439
    brand_name: 황금열쇠
    map_note: Google Maps 공개 검색 결과 확인, 2026-06-16
  - store_id: murderparker_jamsil
    address: 서울특별시 송파구 올림픽로32길 24
    latitude: 37.5138632
    longitude: 127.1094262
    brand_name: 머더파커
    map_note: Google Maps 공개 검색 결과 확인, 2026-06-16
  - store_id: sowoojoo_suwon
    address: 경기도 수원시 팔달구 권광로187번길 26 3층
    latitude: 37.2649153
    longitude: 127.0314112
    brand_name: 소우주
    map_note: Google Maps 공개 검색 결과 확인, 2026-06-16

  - store_id: questionmark_hongdae
    address: 서울시 마포구 와우산로17길 15 3층
    latitude: 37.5500187
    longitude: 126.9220952
    brand_name: 퀘스천마크
    map_note: 공식 공개 주소와 Google Maps 공개 검색 좌표 확인, 2026-06-16
  - store_id: exodus_gangnam
    address: 서울특별시 강남구 봉은사로18길 80 지하1층
    latitude: 37.5015977
    longitude: 127.0273217
    brand_name: 엑소더스
    map_note: Google Maps 공개 검색 결과 확인, 2026-06-16
  - store_id: dreamescape_konkuk
    address: 서울특별시 광진구 아차산로 238 지하1층
    latitude: 37.53998
    longitude: 127.0695528
    brand_name: 드림이스케이프
    map_note: Google Maps 공개 검색 결과 확인, 2026-06-16
  - store_id: amazed_bupyeong2
    address: 인천광역시 부평구 부평대로 24 보성빌딩 지하
    latitude: 37.4928726
    longitude: 126.722441
    brand_name: 어메이즈드
    map_note: 공식 하단 주소와 Google Maps 주소 검색 좌표 확인, 2026-06-16
  - store_id: decoder_hongdae
    address: 서울특별시 마포구 와우산로 88-1 3층
    latitude: 37.5521353
    longitude: 126.9238879
    brand_name: 디코더
    map_note: 공식 연락처 주소와 Google Maps 공개 검색 좌표 확인, 2026-06-16
  - store_id: masterkey_prime_sinchon_public
    address: 서울 서대문구 연세로7안길 20 지하1층
    latitude: 37.5581855
    longitude: 126.9356918
    brand_name: 마스터키프라임
    map_note: 공개 검색 주소와 Google Maps 공개 검색 좌표 확인, 2026-06-16
  - store_id: episode_gangnam
    address: 서울 강남구 강남대로98길 8 4층
    latitude: 37.5005077
    longitude: 127.0273798
    brand_name: 에피소드
    map_note: 공개 검색 주소와 Google Maps 공개 검색 좌표 확인, 2026-06-16

  - store_id: zero_black
    address: 서울특별시 서초구 서초대로73길 40
    latitude: 37.5009048
    longitude: 127.0245108
    brand_name: 제로월드
    map_note: 공개 주소와 Google Maps 주소 검색 좌표 확인, 2026-06-16
  - store_id: imaginary_door_seohyeon
    address: 경기도 성남시 분당구 황새울로342번길 11 금호리빙스텔 지하1층
    latitude: 37.3861834
    longitude: 127.1236381
    brand_name: 상상의문
    map_note: 공개 주소와 Google Maps 주소 검색 좌표 확인, 2026-06-16
  - store_id: earthstar_hongdae_adventure
    address: 서울특별시 마포구 와우산로21길 31 3층
    latitude: 37.5522583
    longitude: 126.9221208
    brand_name: 지구별방탈출
    map_note: 공개 주소와 Google Maps 주소 검색 좌표 확인, 2026-06-16
  - store_id: horror_switch_hongdae
    address: 서울 마포구 와우산로21길 20-11 지층
    latitude: 37.5528044
    longitude: 126.9227458
    brand_name: 호러스위치
    map_note: 공개 주소와 Google Maps 주소 검색 좌표 확인, 2026-06-16
  - store_id: xescape_playground
    address: 서울특별시 마포구 와우산로21길 20-5 홍대프라자 3층
    latitude: 37.5526449
    longitude: 126.9226792
    brand_name: 엑스이스케이프
    map_note: 공개 주소와 Google Maps 주소 검색 좌표 확인, 2026-06-16
  - store_id: xescape_sangsangmadang
    address: 서울특별시 마포구 어울마당로70 서포빌딩 4층
    latitude: 37.5513989
    longitude: 126.9215696
    brand_name: 엑스이스케이프
    map_note: 공개 주소와 Google Maps 주소 검색 좌표 확인, 2026-06-16
  - store_id: weyol_hongdae
    address: 서울시 마포구 와우산로27길 7 지하1층
    latitude: 37.5538377
    longitude: 126.9275925
    brand_name: 위욜
    map_note: 공개 주소와 Google Maps 주소 검색 좌표 확인, 2026-06-16
  - store_id: amazed_bupyeong3
    address: 인천광역시 부평구 시장로 36 명지빌딩 6층
    latitude: 37.4937922
    longitude: 126.7263021
    brand_name: 어메이즈드
    map_note: 공개 주소와 Google Maps 주소 검색 좌표 확인, 2026-06-16
  - store_id: hotelleto_seongsu
    address: 서울시 성동구 연무장5길 18 지하1층 101호
    latitude: 37.5445278
    longitude: 127.0531535
    brand_name: 호텔레토
    map_note: 공개 주소와 Google Maps 주소 검색 좌표 확인, 2026-06-16
  - store_id: deepthinker_hongdae
    address: 서울특별시 마포구 잔다리로 23 4층
    latitude: 37.5507328
    longitude: 126.9202001
    brand_name: 딥띵커
    map_note: 공개 주소와 Google Maps 주소 검색 좌표 확인, 2026-06-16
  - store_id: thechapter_hongdae
    address: 서울 마포구 와우산로 79 5층
    latitude: 37.550061
    longitude: 126.9223922
    brand_name: 더챕터
    map_note: 공개 주소와 Google Maps 주소 검색 좌표 확인, 2026-06-16
  - store_id: livecinema_hongdae
    address: 서울특별시 마포구 양화로 176 롯데시네마 홍대입구
    latitude: 37.5571917
    longitude: 126.9250254
    brand_name: 라이브시네마
    map_note: 공개 주소와 Google Maps 주소 검색 좌표 확인, 2026-06-16
  - store_id: umeplay_hongdae
    address: 서울 마포구 독막로7길 23 대동빌딩 지하1층
    latitude: 37.5489892
    longitude: 126.9189477
    brand_name: 유미플레이
    map_note: 공식 매장안내 주소와 카카오맵 장소 좌표 확인, 2026-06-19
  - store_id: codek_hongdae
    address: 서울특별시 마포구 와우산로 64 3층
    latitude: 37.5502404
    longitude: 126.9232865
    brand_name: 코드케이
    map_note: 공개 주소와 Google Maps 주소 검색 좌표 확인, 2026-06-16
  - store_id: doomescape_1
    address: 인천광역시 남동구 성말로13번길 15 4층 402호
    latitude: 37.4462673
    longitude: 126.7018071
    brand_name: 둠이스케이프
    map_note: 공개 주소와 Google Maps 주소 검색 좌표 확인, 2026-06-16
  - store_id: doomescape_2
    address: 인천광역시 남동구 인하로507번길 18 망고빌딩 5층
    latitude: 37.4440157
    longitude: 126.7032603
    brand_name: 둠이스케이프
    map_note: 공개 주소와 Google Maps 주소 검색 좌표 확인, 2026-06-16
  - store_id: doomescape_dth
    address: 인천광역시 부평구 부평문화로 75 3층 4층
    latitude: 37.494284
    longitude: 126.7246755
    brand_name: 둠이스케이프
    map_note: 공개 주소와 Google Maps 주소 검색 좌표 확인, 2026-06-16
  - store_id: doomescape_fear
    address: 경기도 수원시 팔달구 효원로265번길 20 2층
    latitude: 37.2652491
    longitude: 127.0300236
    brand_name: 둠이스케이프
    map_note: 공개 주소와 Google Maps 주소 검색 좌표 확인, 2026-06-16
  - store_id: pointnine_gangnam
    address: 서울시 강남구 역삼동 618-3 지하1층
    latitude: 37.5034304
    longitude: 127.0283922
    brand_name: 포인트나인
    map_note: 공개 주소와 Google Maps 주소 검색 좌표 확인, 2026-06-16
  - store_id: pointnine_konkuk
    address: 서울 광진구 아차산로33길 49 3층
    latitude: 37.5424706
    longitude: 127.070717
    brand_name: 포인트나인
    map_note: 공개 주소와 Google Maps 주소 검색 좌표 확인, 2026-06-16
  - store_id: pointnine_hongdae
    address: 서울 마포구 독막로7길 40 지하1층
    latitude: 37.5494155
    longitude: 126.9196945
    brand_name: 포인트나인
    map_note: 공개 주소와 Google Maps 주소 검색 좌표 확인, 2026-06-16
  - store_id: studioesc_gangnam
    address: 서울 강남구 봉은사로18길 70 지하1층
    latitude: 37.5035867
    longitude: 127.0397357
    brand_name: Studio ESC
    map_note: 공개 주소와 Google Maps 주소 검색 좌표 확인, 2026-06-16
  - store_id: fantastrick_first
    address: 서울 강남구 강남대로98길 20
    latitude: 37.5042494
    longitude: 127.0220408
    brand_name: 판타스트릭
    map_note: 공개 주소와 Google Maps 주소 검색 좌표 확인, 2026-06-16
  - store_id: fantastrick_third
    address: 서울 강남구 강남대로98길 20
    latitude: 37.5042494
    longitude: 127.0220408
    brand_name: 판타스트릭
    map_note: 공개 주소와 Google Maps 주소 검색 좌표 확인, 2026-06-16
  - store_id: murderparker_konkuk1
    address: 서울 광진구 아차산로 213 지하04호
    latitude: 37.5414252
    longitude: 127.0672115
    brand_name: 머더파커
    map_note: 공개 주소와 Google Maps 주소 검색 좌표 확인, 2026-06-16
  - store_id: murderparker_konkuk2
    address: 서울 광진구 동일로22길 68 지하1층
    latitude: 37.5413565
    longitude: 127.0678125
    brand_name: 머더파커
    map_note: 공개 주소와 Google Maps 주소 검색 좌표 확인, 2026-06-16
  - store_id: murderparker_hongdae1
    address: 서울 마포구 어울마당로 55-4 3층
    latitude: 37.5502772
    longitude: 126.9207119
    brand_name: 머더파커
    map_note: 공개 주소와 Google Maps 주소 검색 좌표 확인, 2026-06-16
  - store_id: murderparker_wow_hongdae
    address: 서울 마포구 잔다리로6길 25 3층
    latitude: 37.5523796
    longitude: 126.9204822
    brand_name: 머더파커
    map_note: 공개 주소와 Google Maps 주소 검색 좌표 확인, 2026-06-16
  - store_id: murderparker_wow_jamsil
    address: 서울 송파구 올림픽로32길 22-23 지하1층
    latitude: 37.5138632
    longitude: 127.1094262
    brand_name: 머더파커
    map_note: 공개 주소와 Google Maps 주소 검색 좌표 확인, 2026-06-16
  - store_id: xdungeon_gangnam
    address: 서울 강남구 강남대로84길 33 대우디오빌플러스 지하1층 111호
    latitude: 37.4974033
    longitude: 127.0310522
    brand_name: 비트포비아
    map_note: 공개 주소와 Google Maps 주소 검색 좌표 확인, 2026-06-16
  - store_id: xdungeon_sinchon
    address: 서울 강남구 테헤란로4길 32 우정에쉐르1 지하1층
    latitude: 37.4962612
    longitude: 127.0301445
    brand_name: 비트포비아
    map_note: 공개 주소와 Google Maps 주소 검색 좌표 확인, 2026-06-16
  - store_id: xdungeon_hongdae3
    address: 서울 마포구 와우산로29길 21
    latitude: 37.5549156
    longitude: 126.9285552
    brand_name: 비트포비아
    map_note: 공개 주소와 Google Maps 주소 검색 좌표 확인, 2026-06-16
  - store_id: xdungeon_seomyeon
    address: 서울 마포구 와우산로29길 21 3층
    latitude: 37.5549156
    longitude: 126.9285552
    brand_name: 비트포비아
    map_note: 공개 주소와 Google Maps 주소 검색 좌표 확인, 2026-06-16
  - store_id: keyescape_gangnam
    address: 서울특별시 강남구 강남대로96길 17
    latitude: 37.5001389
    longitude: 127.0283996
    brand_name: 키이스케이프
    map_note: 공개 주소와 Google Maps 주소 검색 좌표 확인, 2026-06-16
  - store_id: keyescape_station
    address: 서울 서초구 강남대로69길 11
    latitude: 37.5014189
    longitude: 127.0242103
    brand_name: 키이스케이프
    map_note: 공개 주소와 Google Maps 주소 검색 좌표 확인, 2026-06-16
  - store_id: keyescape_theoreum
    address: 서울 강남구 테헤란로6길 30 지하1층
    latitude: 37.4965257
    longitude: 127.0310831
    brand_name: 키이스케이프
    map_note: 공개 주소와 Google Maps 주소 검색 좌표 확인, 2026-06-16
  - store_id: keyescape_login1
    address: 서울 강남구 강남대로98길 16 4층
    latitude: 37.5006556
    longitude: 127.02805
    brand_name: 키이스케이프
    map_note: 공개 주소와 Google Maps 주소 검색 좌표 확인, 2026-06-16
  - store_id: keyescape_memorycompany
    address: 서울특별시 강남구 봉은사로2길 7
    latitude: 37.5041987
    longitude: 127.025675
    brand_name: 키이스케이프
    map_note: 공개 주소와 Google Maps 주소 검색 좌표 확인, 2026-06-16
  - store_id: play33_daejeon
    address: 대전광역시 중앙로164번길 17 지하1층
    latitude: 36.3286275
    longitude: 127.4282981
    brand_name: 플레이33
    map_note: 공개 주소와 Google Maps 주소 검색 좌표 확인, 2026-06-16
  - store_id: xdungeon_101
    address: 서울특별시 마포구 와우산로 74 2층
    latitude: 37.550899
    longitude: 126.9232932
    brand_name: 비트포비아
    map_note: 공개 주소와 Google Maps 주소 검색 좌표 확인, 2026-06-16
  - store_id: xdungeon_hongdae2
    address: 부산광역시 부산진구 동천로66 5층
    latitude: 35.1546128
    longitude: 129.0625601
    brand_name: 비트포비아
    map_note: 공개 주소와 Google Maps 주소 검색 좌표 확인, 2026-06-16
  - store_id: xdungeon_bupyeong
    address: 부산 부산진구 중앙대로692번길 43
    latitude: 35.1546387
    longitude: 129.0616008
    brand_name: 비트포비아
    map_note: 공개 주소와 Google Maps 주소 검색 좌표 확인, 2026-06-16
  - store_id: zero_lotteworld
    address: 서울 송파구 올림픽로 240 롯데월드 민속박물관
    latitude: 37.5112348
    longitude: 127.0980274
    brand_name: 제로월드
    map_note: 공개 주소와 Google Maps 주소 검색 좌표 확인, 2026-06-16
  - store_id: keyescape_hongdae
    address: 서울특별시 마포구 어울마당로 44-1
    latitude: 37.5489167
    longitude: 126.9209115
    brand_name: 키이스케이프
    map_note: 공개 주소와 Google Maps 주소 검색 좌표 확인, 2026-06-16
  - store_id: keyescape_busan
    address: 부산 북구 만덕대로 21-1
    latitude: 35.2110254
    longitude: 129.0072666
    brand_name: 키이스케이프
    map_note: 공개 주소와 Google Maps 주소 검색 좌표 확인, 2026-06-16
  - store_id: keyescape_woozoolike
    address: 서울 강남구 역삼동 827-25 지하1층
    latitude: 37.4956717
    longitude: 127.031521
    brand_name: 키이스케이프
    map_note: 공개 주소와 Google Maps 주소 검색 좌표 확인, 2026-06-16
  - store_id: keyescape_login2
    address: 서울 강남구 강남대로98길 16 5층
    latitude: 37.5006556
    longitude: 127.02805
    brand_name: 키이스케이프
    map_note: 공개 주소와 Google Maps 주소 검색 좌표 확인, 2026-06-16
  - store_id: keyescape_whosthere
    address: 서울 서초구 서초대로77길 27 지하1층
    latitude: 37.5000702
    longitude: 127.0254235
    brand_name: 키이스케이프
    map_note: 공개 주소와 Google Maps 주소 검색 좌표 확인, 2026-06-16
  - store_id: keyescape_moviemood
    address: 서울 강남구 봉은사로4길 32 지하1층
    latitude: 37.5041987
    longitude: 127.025675
    brand_name: 키이스케이프
    map_note: 공개 주소와 Google Maps 주소 검색 좌표 확인, 2026-06-16
